City_ID,City,Lat,Lng,Max Temp,Humidity,Cloudiness,Wind Speed,Country,Date
0,haiku-pauwela,20.9219,-156.3051,23.36,76,0,1.34,US,1701954982
1,jaciara,-15.9653,-54.9683,36.4,31,1,1.35,BR,1701954985
2,la passe,45.5549,-0.8967,9.13,78,100,7.09,FR,1701954986
3,klyuchi,52.2667,79.1667,-17.32,73,100,5.08,RU,1701954935
4,grytviken,-54.2811,-36.5092,-0.12,87,72,14.09,GS,1701954588
5,serinyol,36.3556,36.2123,14.79,100,75,1.03,TR,1701954996
6,west island,-12.1568,96.8225,26.99,78,40,5.14,CC,1701954997
7,alofi,-19.0595,-169.9187,24.94,94,30,1.03,NU,1701955000
8,kodiak,57.79,-152.4072,0.73,69,0,0.0,US,1701955001
9,wasco,35.5941,-119.341,12.93,87,75,0.0,US,1701955003
10,papatowai,-46.5619,169.4708,10.3,73,96,4.17,NZ,1701954596
11,adamstown,-25.066,-130.1015,22.18,81,22,4.38,PN,1701954491
12,thunder bay,48.4001,-89.3168,-4.01,93,75,1.54,CA,1701955007
13,quellon,-43.1167,-73.6167,12.18,66,25,0.73,CL,1701955009
14,acapulco de juarez,16.8634,-99.8901,25.9,89,100,2.57,MX,1701954838
15,pisco,-13.7,-76.2167,20.03,88,75,1.54,PE,1701955012
16,kawant,22.1,74.05,24.36,48,23,1.99,IN,1701955013
17,iqaluit,63.7506,-68.5145,-14.61,77,20,7.2,CA,1701954736
18,usogorsk,63.4106,48.6872,-26.3,98,17,0.2,RU,1701955016
19,port elizabeth,-33.918,25.5701,25.16,69,0,6.69,ZA,1701954799
20,hovd,48.0056,91.6419,-5.76,26,0,1.83,MN,1701955020
21,ust-nera,64.5667,143.2,-43.45,89,33,0.69,RU,1701954891
22,albany,42.6001,-73.9662,-3.48,81,95,1.43,US,1701954682
23,avarua,-21.2078,-159.775,24.03,78,20,3.09,CK,1701954621
24,labrador city,52.9463,-66.9114,-12.05,85,100,3.6,CA,1701955026
25,vilyuchinsk,52.9306,158.4028,-6.71,84,17,2.83,RU,1701954702
26,alice springs,-23.7,133.8833,27.75,57,16,0.0,AU,1701955028
27,almeria,37.1667,-2.3333,16.35,62,88,2.24,ES,1701955024
28,kapuskasing,49.4169,-82.4331,-3.95,93,100,2.57,CA,1701955035
29,waitangi,-43.9535,-176.5597,11.57,91,81,9.08,NZ,1701954614
30,la ronge,55.1001,-105.2842,-3.86,86,75,1.03,CA,1701955040
31,ushuaia,-54.8,-68.3,11.79,64,63,10.28,AR,1701954297
32,bilibino,68.0546,166.4372,-36.4,100,97,0.55,RU,1701955042
33,cesky krumlov,48.8109,14.3152,2.04,74,93,1.35,CZ,1701955044
34,pontianak,-0.0333,109.3333,24.99,100,40,1.54,ID,1701955047
35,margaret river,-33.95,115.0667,17.02,70,100,6.41,AU,1701955048
36,vernon,50.2581,-119.2691,3.75,94,100,0.51,CA,1701955052
37,blackmans bay,-43.0167,147.3167,13.62,83,100,1.65,AU,1701954674
38,lepsy,46.235,78.9456,-2.38,51,100,3.24,KZ,1701955055
39,acarau,-2.8856,-40.12,29.56,64,94,7.82,BR,1701955056
40,college,64.8569,-147.8028,-13.03,81,100,0.0,US,1701954627
41,neryungri,56.6709,124.6491,-35.32,99,100,1.07,RU,1701955060
42,vrangel',42.7297,133.0839,-1.54,48,0,9.5,RU,1701955063
43,rikaze,29.25,88.8833,4.37,31,100,1.67,CN,1701954688
44,port-aux-francais,-49.35,70.2167,4.28,73,51,11.68,TF,1701954436
45,sechura,-5.5569,-80.8222,21.18,78,99,4.47,PE,1701955067
46,colonia,50.9333,6.95,5.46,81,0,5.14,DE,1701954804
47,carnarvon,-24.8667,113.6333,22.51,69,0,10.94,AU,1701955072
48,bethel,41.3712,-73.414,-1.07,82,0,1.54,US,1701954420
49,saipan,15.1355,145.701,27.39,83,40,6.17,MP,1701955074
50,tacna,-18.0056,-70.2483,17.5,77,40,1.54,PE,1701954997
51,ngaoundere,7.3167,13.5833,30.69,18,90,3.82,CM,1701955078
52,tiksi,71.6872,128.8694,-31.81,99,91,3.04,RU,1701954589
53,qaqortoq,60.7167,-46.0333,3.19,60,100,6.84,GL,1701955085
54,saudarkrokur,65.7461,-19.6394,-6.75,63,10,2.71,IS,1701955087
55,pandan,14.0453,124.1694,26.92,73,99,4.27,PH,1701955089
56,san patricio,28.017,-97.5169,18.91,85,99,2.81,US,1701955092
57,wailua homesteads,22.0669,-159.378,23.44,87,20,4.63,US,1701954679
58,cam ranh,11.9214,109.1591,26.98,74,20,4.12,VN,1701955097
59,strasburg,48.5834,7.743,4.92,100,100,2.06,FR,1701954991
60,puerto ayora,-0.7393,-90.3518,23.95,84,66,4.17,EC,1701954597
61,nar'yan-mar,67.6713,53.087,-17.71,99,99,2.72,RU,1701955102
62,qarazhal,48.0078,70.7903,-9.51,51,13,4.09,KZ,1701955103
63,cole harbour,44.6724,-63.4751,-1.27,86,41,3.58,CA,1701955106
64,tolanaro,-25.0319,46.9987,25.29,65,100,6.55,MG,1701955107
65,howard springs,-12.497,131.047,24.95,80,17,1.95,AU,1701955108
66,keflavik,64.0049,-22.5624,3.24,60,0,7.72,IS,1701954867
67,new norfolk,-42.7826,147.0587,14.28,77,82,1.39,AU,1701955113
68,invercargill,-46.4,168.35,10.61,66,94,4.35,NZ,1701954678
69,longyearbyen,78.2186,15.6401,-3.09,68,75,11.32,SJ,1701955116
70,saguenay,48.4168,-71.0657,-9.95,82,100,2.57,CA,1701955118
71,thompson,55.7435,-97.8558,-10.48,98,100,1.43,CA,1701954675
72,ulladulla,-35.35,150.4667,21.54,89,100,2.98,AU,1701954684
73,puerto baquerizo moreno,-0.9,-89.6,23.56,85,58,5.45,EC,1701954610
74,cabedelo,-6.9811,-34.8339,29.37,67,78,5.45,BR,1701955131
75,yellowknife,62.456,-114.3525,-8.71,100,100,2.57,CA,1701955133
76,jamestown,42.097,-79.2353,1.77,91,100,6.17,US,1701955135
77,howrah,22.5892,88.3103,20.0,88,100,2.57,IN,1701955137
78,bredasdorp,-34.5322,20.0403,29.2,37,0,5.98,ZA,1701955139
79,st. john's,47.5649,-52.7093,-1.68,92,100,7.6,CA,1701955140
80,saint-philippe,-21.3585,55.7679,24.77,83,53,4.5,RE,1701955144
81,iwanai,42.9744,140.5089,0.49,65,100,11.71,JP,1701955145
82,stanley,54.868,-1.6985,4.87,96,75,4.63,GB,1701954630
83,ribeira grande,38.5167,-28.7,19.32,72,20,4.63,PT,1701954598
84,puerto natales,-51.7236,-72.4875,10.25,62,0,2.06,CL,1701954529
85,segezha,63.7415,34.3222,-18.63,97,99,1.96,RU,1701955155
86,torres,-29.3353,-49.7269,29.9,72,94,1.66,BR,1701955158
87,isafjordur,66.0755,-23.124,3.02,56,75,10.8,IS,1701955160
88,sibul,15.169,121.0616,27.03,90,44,1.56,PH,1701955163
89,saldanha,-33.0117,17.9442,20.95,74,37,5.57,ZA,1701955165
90,constantia,44.1833,28.65,1.5,92,100,8.08,RO,1701955166
91,yamada,39.4667,141.95,4.41,63,14,8.42,JP,1701955168
92,vorgashor,67.5833,63.95,-28.22,98,100,2.19,RU,1701954580
93,iskateley,67.6803,53.1512,-18.46,99,99,2.61,RU,1701954609
94,apiai,-24.5094,-48.8425,29.19,47,100,1.91,BR,1701955172
95,grants,35.1473,-107.8514,-5.87,93,0,0.0,US,1701955173
96,labytnangi,66.6572,66.4183,-25.4,93,100,1.77,RU,1701955174
97,yangambi,0.8102,24.4336,29.69,63,100,0.51,CD,1701955177
98,edinburgh of the seven seas,-37.0676,-12.3116,14.72,76,100,6.82,SH,1701954582
99,salmon arm,50.6998,-119.3024,3.57,100,100,0.51,CA,1701955073
100,plastun,44.7561,136.2939,-8.26,57,2,7.97,RU,1701955181
101,enewetak,11.3474,162.3373,27.98,75,92,10.11,MH,1701955185
102,chiang mai,18.75,99.0,26.04,89,75,1.54,TH,1701955187
103,luderitz,-26.6481,15.1594,22.7,56,0,9.04,NA,1701954601
104,altai,46.3722,96.2583,-10.85,52,0,1.61,MN,1701955195
105,eastham,41.8301,-69.9739,-0.03,71,0,2.57,US,1701955196
106,ceeldheer,3.8488,47.1806,29.42,54,30,8.57,SO,1701955197
107,tazacorte,28.629,-17.9293,21.54,86,75,2.57,ES,1701955199
108,yanchep,-31.55,115.6833,20.9,69,29,8.53,AU,1701955200
109,planadas,3.197,-75.6451,23.24,75,70,0.87,CO,1701955202
110,lavelanet,42.9313,1.8466,14.89,65,100,2.68,FR,1701955087
111,camana,-16.6228,-72.7111,21.31,75,96,3.69,PE,1701955206
112,tongouson,5.0214,120.1328,27.84,80,100,2.86,PH,1701955208
113,aasiaat,68.7098,-52.8699,-7.95,84,97,2.45,GL,1701955211
114,vila velha,-20.3297,-40.2925,32.97,63,40,5.81,BR,1701954985
115,nuevitas,21.5453,-77.2644,23.69,63,98,4.91,CU,1701955214
116,talnakh,69.4865,88.3972,-23.22,93,35,3.29,RU,1701955218
117,bauchi,10.5,10.0,33.88,10,14,3.53,NG,1701955220
118,bukama,-9.2,25.85,27.06,63,100,2.53,CD,1701955223
119,porto novo,6.4965,2.6036,30.9,42,100,2.03,BJ,1701955224
120,qui nhon,13.7667,109.2333,24.61,87,92,5.44,VN,1701955225
121,port alfred,-33.5906,26.891,25.62,71,1,9.6,ZA,1701955229
122,ilulissat,69.2167,-51.1,1.01,44,75,5.66,GL,1701955231
123,lebu,-37.6167,-73.65,15.04,76,100,5.22,CL,1701955233
124,chulakkurgan,43.765,69.1814,-1.73,45,100,2.89,KZ,1701955234
125,fort st. john,56.2499,-120.8529,-5.06,74,0,3.6,CA,1701955236
126,tosham,28.8833,75.9167,20.71,22,0,2.39,IN,1701955238
127,baki,-7.6128,110.7839,26.21,80,100,2.97,ID,1701955239
128,tsiombe,-25.3,45.4833,26.13,57,100,8.95,MG,1701955240
129,severnoye,56.3491,78.3619,-34.45,100,7,2.24,RU,1701955242
130,chebba,35.2372,11.115,17.56,57,70,8.15,TN,1701955243
131,mitchell,43.7094,-98.0298,-1.01,86,0,3.09,US,1701955244
132,port mathurin,-19.6833,63.4167,26.48,71,0,2.03,MU,1701955246
133,nova sintra,14.8667,-24.7167,21.55,71,100,3.67,CV,1701955247
134,kolonia town,6.964,158.206,28.0,83,100,0.0,FM,1701955248
135,ketchikan,55.3422,-131.6461,3.99,93,100,0.0,US,1701955249
136,valparaiso,-33.0393,-71.6273,19.44,70,75,4.12,CL,1701955251
137,pervomayskoye,43.919,46.7102,3.98,96,100,4.85,RU,1701955252
138,udachny,66.4167,112.4,-26.42,91,98,0.94,RU,1701955253
139,whitehorse,60.7161,-135.0538,-2.57,80,75,7.2,CA,1701955255
140,cherdyn',60.403,56.4787,-28.52,100,17,0.1,RU,1701955256
141,egilsstadir,65.2653,-14.3948,-1.05,69,75,7.2,IS,1701955208
142,port lincoln,-34.7333,135.8667,20.19,59,100,2.39,AU,1701955258
143,kolpashevo,58.3131,82.9089,-28.27,93,100,2.68,RU,1701955259
144,bandarbeyla,9.4942,50.8122,26.4,60,42,11.29,SO,1701955261
145,olonkinbyen,70.9221,-8.7187,-2.74,79,100,4.32,SJ,1701955262
146,hawaiian paradise park,19.5933,-154.9731,21.73,88,75,2.06,US,1701955264
147,kamaishi,39.2667,141.8833,4.42,68,24,9.78,JP,1701955265
148,chonchi,-42.6128,-73.8092,11.56,44,86,0.77,CL,1701955267
149,brokopondo,4.75,-55.1667,27.42,75,83,2.75,SR,1701955269
150,rusape,-18.5278,32.1284,30.9,18,0,5.41,ZW,1701955270
151,weno,7.4515,151.8468,25.97,94,100,6.69,FM,1701955271
152,east london,-33.0153,27.9116,25.95,69,0,9.64,ZA,1701955220
153,baise city,23.8997,106.6133,17.28,56,11,0.53,CN,1701955274
154,shagonar,51.5333,92.8,-14.25,75,100,0.53,RU,1701955276
155,severo-yeniseyskiy,60.3725,93.0408,-35.79,97,62,1.34,RU,1701955151
156,ponta delgada,37.7333,-25.6667,19.4,72,20,3.09,PT,1701955226
157,tayzhina,53.6679,87.4362,-20.19,95,100,2.61,RU,1701955279
158,kuta,-8.7233,115.1723,27.97,83,20,1.03,ID,1701955281
159,taulaga,-11.0553,-171.0883,28.37,78,100,4.93,AS,1701955282
160,santa isabel,-23.3156,-46.2214,31.61,52,92,3.21,BR,1701955285
161,masterton,-40.9597,175.6575,11.05,94,100,0.98,NZ,1701955288
162,utrik,11.2278,169.8474,27.69,80,99,11.04,MH,1701955290
163,tofol,5.3248,163.0078,28.07,79,99,9.44,FM,1701955294
164,petropavlovsk-kamchatsky,53.0452,158.6483,-7.53,72,75,3.0,RU,1701955200
165,urengoy,65.9667,78.3667,-21.91,96,100,6.14,RU,1701955048
166,kourou,5.1552,-52.6478,30.03,75,10,2.98,GF,1701955298
167,langsa,4.4683,97.9683,24.29,96,100,0.39,ID,1701955299
168,orchard homes,46.8633,-114.0484,6.85,83,100,1.34,US,1701955300
169,afaahiti,-17.75,-149.2833,22.93,89,100,7.84,PF,1701955302
170,papao,-17.75,-149.55,23.82,87,100,7.99,PF,1701955304
171,anadyr,64.75,177.4833,-20.72,84,40,10.0,RU,1701955237
172,zawyat an nwacer,33.3802,-7.6211,19.08,75,40,3.09,MA,1701955306
173,mansa,29.9833,75.3833,20.24,23,0,2.35,IN,1701955308
174,buala,-8.145,159.5921,26.52,87,97,5.11,SB,1701955309
175,nemuro,43.3236,145.575,7.87,87,100,7.91,JP,1701955310
176,arraial do cabo,-22.9661,-42.0278,33.98,55,0,4.12,BR,1701955312
177,clear lake,43.138,-93.3794,0.85,93,0,2.57,US,1701955313
178,kingsville,27.5159,-97.8561,15.57,96,75,2.06,US,1701955314
179,mil'kovo,55.6078,37.7956,-11.27,100,70,1.81,RU,1701955317
180,travnik,44.2267,17.6706,3.66,74,92,1.96,BA,1701955318
181,salekhard,66.53,66.6019,-27.49,96,100,1.31,RU,1701955261
182,yermentau,51.6214,73.1069,-20.58,82,83,3.91,KZ,1701955324
183,mount pearl,47.5166,-52.7813,-2.14,93,100,6.69,CA,1701955163
184,dwarka,22.2394,68.9678,24.9,55,0,4.36,IN,1701955327
185,clermont,49.5,2.4167,5.1,86,100,6.19,FR,1701955329
186,boone,39.0334,-92.3335,8.07,79,2,4.14,US,1701955334
187,konarka,19.9,86.1167,22.22,87,100,4.91,IN,1701955336
188,svetlyy,54.675,20.1347,-0.97,93,100,4.44,RU,1701955338
189,apatin,45.6711,18.9847,3.98,93,100,6.28,RS,1701955112
190,el burgo de osma,41.5862,-3.0652,5.88,77,100,1.14,ES,1701955342
191,karratha,-20.7377,116.8463,29.56,57,6,5.89,AU,1701955344
192,hammerfest,70.6634,23.6821,-6.75,63,0,5.66,NO,1701955345
193,laguna,38.421,-121.4238,10.6,93,0,3.09,US,1701955347
194,manakara,-22.1333,48.0167,26.28,65,71,3.48,MG,1701955348
195,taraclia,45.9,28.6689,0.93,99,100,4.45,MD,1701955350
196,vigan,17.5747,120.3869,26.49,79,100,2.76,PH,1701955351
197,tatabanya,47.5849,18.3932,4.27,99,100,5.24,HU,1701955353
198,farafangana,-22.8167,47.8333,26.3,67,50,4.46,MG,1701955355
199,tianpeng,30.9866,103.9393,14.8,66,96,1.8,CN,1701955356
200,rio branco,-9.9747,-67.81,26.34,89,75,1.54,BR,1701955358
201,san jose,37.3394,-121.895,10.58,87,75,10.28,US,1701955250
202,praia da vitoria,38.7333,-27.0667,19.31,72,20,2.46,PT,1701955362
203,lompoc,34.6391,-120.4579,12.08,84,0,6.26,US,1701955363
204,jasper,37.2001,-94.3502,10.0,56,20,5.14,US,1701955365
205,hamilton,39.1834,-84.5333,2.65,85,20,6.69,US,1701955138
206,hermanus,-34.4187,19.2345,23.58,65,0,5.55,ZA,1701955363
207,aginskoye,51.1,114.53,-18.33,96,100,1.83,RU,1701955372
208,aioun,16.6614,-9.6149,32.51,9,96,5.59,MR,1701955373
209,souillac,-20.5167,57.5167,28.21,78,75,2.57,MU,1701955374
210,queenstown,-31.8976,26.8753,23.87,48,75,9.19,ZA,1701955169
211,imbituba,-28.24,-48.6703,25.76,80,100,1.86,BR,1701955379
212,archangelos,36.2149,28.1149,17.99,74,100,3.14,GR,1701955382
213,susuman,62.7833,148.1667,-40.01,95,54,0.45,RU,1701955384
214,undurkhaan,47.3194,110.6556,0.07,74,100,7.09,MN,1701955386
215,kudat,6.8837,116.8477,25.96,94,100,0.51,MY,1701955389
216,pathein,16.7833,94.7333,26.9,71,94,1.09,MM,1701955390
217,saiha,22.4833,92.9667,19.84,100,100,0.97,IN,1701955391
218,las khorey,11.1595,48.1967,26.26,61,93,5.39,SO,1701955394
219,juan griego,11.0817,-63.9655,28.09,72,61,5.07,VE,1701955395
220,machico,32.7,-16.7667,23.17,74,20,2.06,PT,1701955396
221,francistown,-21.17,27.5079,35.08,22,6,4.73,BW,1701954979
222,melfort,52.8667,-104.6177,2.07,87,100,3.09,CA,1701955402
223,taoudenni,22.6783,-3.9836,29.02,9,77,5.8,ML,1701955404
224,santa terezinha,-29.9002,-50.0904,26.45,79,100,3.11,BR,1701955405
225,cockburn town,21.4612,-71.1419,25.82,71,95,9.42,TC,1701955374
226,freetown,8.484,-13.2299,31.14,56,24,1.45,SL,1701955203
227,abepura,-2.6333,140.5833,25.45,89,20,1.54,ID,1701955409
228,mazowe,-17.504,30.9739,35.45,13,0,1.54,ZW,1701955410
229,bonthe,7.5264,-12.505,30.5,61,5,3.51,SL,1701955411
230,vilyuysk,63.7553,121.6247,-45.56,100,70,1.34,RU,1701955413
231,hadibu,12.65,54.0333,25.7,62,100,7.13,YE,1701955417
232,palmer,42.1584,-72.3287,-3.71,81,75,0.0,US,1701955418
233,kapit,2.0167,112.9333,24.17,98,100,0.43,MY,1701955419
234,garbahaarrey,3.3289,42.2209,33.99,19,87,3.46,SO,1701955421
235,ghat,24.9647,10.1728,23.88,13,0,4.82,LY,1701955423
236,cabo san lucas,22.8909,-109.9124,19.86,62,0,4.12,MX,1701955424
237,notodden,59.5594,9.2585,-4.71,88,75,0.0,NO,1701955425
238,rosetta,31.4044,30.4164,20.92,54,100,5.07,EG,1701955427
239,soe,-9.8607,124.284,21.25,90,100,1.28,ID,1701955428
240,birjand,32.8663,59.2211,15.26,10,0,5.14,IR,1701955431
241,kavieng,-2.5744,150.7967,27.57,82,100,3.97,PG,1701955432
242,tura,25.5198,90.2201,16.73,99,100,1.49,IN,1701955434
243,portland,45.5234,-122.6762,9.15,93,100,6.71,US,1701954906
244,al jawf,29.5,38.75,21.66,42,0,1.24,SA,1701955436
245,kayangel,8.0823,134.7173,29.0,75,22,7.19,PW,1701955439
246,viqueque,-8.8673,126.3658,27.21,81,100,1.06,TL,1701955442
247,arkhangel'sk,64.5401,40.5433,-26.04,76,0,3.0,RU,1701955444
248,thinadhoo,0.5333,72.9333,26.46,85,100,8.13,MV,1701955445
249,mahdishahr,35.7108,53.3556,8.19,40,85,0.99,IR,1701955447
250,lerwick,60.1545,-1.1494,6.0,66,100,13.24,GB,1701955448
251,torbat-e heydariyeh,35.274,59.2195,11.11,19,8,2.79,IR,1701955449
252,yanam,16.7333,82.2167,24.44,91,88,0.87,IN,1701955451
253,rongelap,11.1635,166.8941,27.63,78,23,10.11,MH,1701955452
254,kremenets,50.0969,25.7246,-4.22,92,87,4.54,UA,1701955453
255,ambodifotatra,-16.9833,49.85,26.46,73,100,7.69,MG,1701955458
256,kapa'a,22.0752,-159.319,24.18,85,20,4.63,US,1701955462
257,akureyri,65.6835,-18.0878,-7.04,93,75,1.54,IS,1701955465
258,vadso,70.0744,29.7487,-11.91,85,75,5.66,NO,1701955470
259,penzance,50.1186,-5.5371,13.38,100,20,6.69,GB,1701955471
260,mitu,1.1983,-70.1733,25.66,82,100,1.08,CO,1701955473
261,gaalkacyo,6.7697,47.4308,32.78,17,100,5.0,SO,1701955474
262,turpan,42.9333,89.1667,2.51,46,22,1.52,CN,1701954908
263,remire-montjoly,4.9167,-52.2667,30.02,70,75,4.12,GF,1701955472
264,gadzhiyevo,69.2551,33.3362,-16.32,98,41,6.09,RU,1701955480
265,karagay,58.2667,54.9368,-32.78,100,7,0.96,RU,1701955484
266,talara,-4.5772,-81.2719,23.42,73,40,8.75,PE,1701955489
267,usinsk,65.9939,57.5281,-26.07,98,100,3.13,RU,1701955491
268,altay,47.8667,88.1167,-15.06,87,50,2.92,CN,1701955492
269,geraldton,-28.7667,114.6,20.23,64,100,7.2,AU,1701955493
270,hithadhoo,-0.6,73.0833,26.77,81,100,4.86,MV,1701955494
271,bengkulu,-3.8004,102.2655,24.84,94,100,1.89,ID,1701955444
272,namibe,-15.1961,12.1522,26.83,71,46,5.04,AO,1701955497
273,fada,9.5667,8.3,34.0,12,72,0.65,NG,1701955498
274,kavaratti,10.5669,72.642,28.33,66,83,3.08,IN,1701955499
275,tobelo,1.7284,128.0095,27.42,81,100,2.02,ID,1701955501
276,iglino,54.8324,56.4126,-21.95,100,7,1.53,RU,1701955502
277,newman,37.3138,-121.0208,7.94,90,35,1.79,US,1701955503
278,vuktyl,63.8567,57.3094,-34.38,100,76,0.45,RU,1701955505
279,monticello,45.3055,-93.7941,-1.12,98,0,0.0,US,1701955507
280,touros,-5.1989,-35.4608,29.94,61,100,5.78,BR,1701955373
281,miles city,46.4083,-105.8406,-1.46,93,0,4.12,US,1701955517
282,ouallam,14.3188,2.0866,34.9,6,72,5.79,NE,1701955519
283,twon-brass,4.3151,6.2418,28.19,75,100,2.49,NG,1701955521
284,nahrin,36.0649,69.1334,11.28,27,100,0.35,AF,1701955522
285,cidade velha,14.9167,-23.6167,27.26,54,75,6.17,CV,1701955523
286,kenai,60.5544,-151.2583,-14.97,85,0,2.57,US,1701955524
287,mugia,43.1041,-9.2179,17.87,89,100,6.69,ES,1701955525
288,plettenberg bay,-34.0527,23.3716,23.88,54,13,2.49,ZA,1701955281
289,goshaingaon,26.4379,89.9788,18.67,84,100,3.68,IN,1701955528
290,yuzhno-kurilsk,44.0306,145.8556,7.43,84,100,4.94,RU,1701955530
291,chinde,26.8418,88.0763,11.3,91,100,1.18,NP,1701955531
292,vylkove,45.4021,29.586,5.0,92,100,6.07,UA,1701955434
293,klaksvik,62.2266,-6.589,6.51,84,34,13.27,FO,1701955535
294,ishigaki,24.3448,124.1572,20.07,68,20,5.14,JP,1701955536
295,tongchuan,35.0806,109.0897,11.32,26,0,1.83,CN,1701955537
296,kenora,49.8167,-94.4337,-0.46,93,75,3.09,CA,1701955539
297,angaur state,6.906,134.13,28.85,75,65,5.69,PW,1701955555
298,murudeshwara,14.0943,74.4845,27.02,70,99,1.71,IN,1701955557
299,tazovsky,67.4667,78.7,-21.14,96,100,5.72,RU,1701955470
300,vilanova i la geltru,41.2239,1.7251,16.89,52,52,2.24,ES,1701955379
301,kiunga,-6.1219,141.2906,23.61,96,69,0.62,PG,1701955566
302,mount darwin,-16.7725,31.5838,33.74,17,0,3.29,ZW,1701955504
303,georgetown,5.4112,100.3354,26.97,91,40,0.51,MY,1701955251
304,manuguru,17.981,80.7547,22.01,91,23,1.92,IN,1701955577
305,bunia,1.5667,30.25,23.54,74,15,1.24,CD,1701955578
306,armacao de buzios,-22.7469,-41.8817,36.03,73,95,5.88,BR,1701955580
307,tadine,-21.55,167.8833,22.73,71,100,5.37,NC,1701955581
308,atafu village,-8.5421,-172.5159,28.79,78,100,3.74,TK,1701955583
309,kasane,-17.8167,25.15,37.23,17,90,2.27,BW,1701955584
310,nkongsamba,4.9547,9.9404,25.29,75,100,1.12,CM,1701955585
311,lihue,21.9789,-159.3672,23.77,82,20,4.63,US,1701955437
312,malvan,16.0667,73.4667,27.01,71,71,4.02,IN,1701955589
313,ngereklmadel,7.4883,134.4856,26.05,89,75,2.06,PW,1701955590
314,codrington,-38.2667,141.9667,11.64,81,100,1.2,AU,1701955347
315,glace bay,46.1969,-59.957,0.68,80,75,6.69,CA,1701955593
316,katabu,-4.9333,122.5167,25.62,87,100,0.72,ID,1701955596
317,chato,-2.6378,31.7669,26.74,55,42,3.0,TZ,1701955599
318,mogadishu,2.0371,45.3438,28.93,79,20,6.69,SO,1701955601
319,santana,-0.0583,-51.1817,30.1,79,40,4.63,BR,1701955602
320,gueckedou,8.6667,-10.25,30.66,39,0,0.47,GN,1701955603
321,nahiyat ash shinafiyah,31.5874,44.6602,25.03,25,100,3.69,IQ,1701955605
322,buka,40.8108,69.1986,7.82,53,100,1.87,UZ,1701955606
323,ocean shores,46.9737,-124.1563,8.86,98,100,3.6,US,1701955610
324,kencong,-8.2833,113.3667,26.9,82,100,0.59,ID,1701955611
325,ambon,-3.6954,128.1814,26.08,94,40,2.06,ID,1701955613
326,kerikeri,-35.2268,173.9474,16.06,88,100,1.74,NZ,1701955614
327,beyneu,45.3167,55.2,0.74,66,100,7.65,KZ,1701955615
328,kamin-kashyrskyi,51.6241,24.9586,-4.7,89,100,4.37,UA,1701955617
329,orizona,-17.0314,-48.2958,30.5,32,0,5.08,BR,1701955618
330,hwange,-18.3693,26.5019,38.93,19,47,3.22,ZW,1701955621
331,hastings,50.8552,0.5729,8.77,79,100,11.56,GB,1701955624
332,katrineholm,58.9959,16.2072,-2.06,99,100,2.36,SE,1701955625
333,sao vicente,-23.9631,-46.3919,36.1,49,20,2.57,BR,1701955626
334,mashhad,36.297,59.6062,14.08,47,68,2.06,IR,1701955442
335,hengchun,22.0042,120.7439,22.36,66,100,10.24,TW,1701955628
336,jayapura,-2.5333,140.7,25.66,89,94,3.88,ID,1701955629
337,dunedin,-45.8742,170.5036,11.0,81,95,1.34,NZ,1701955631
338,nova vicosa,-17.8919,-39.3719,29.18,61,98,3.85,BR,1701955632
339,cheongsong gun,36.4335,129.057,3.03,70,20,1.38,KR,1701955633
340,floro,61.5996,5.0328,5.54,75,40,5.14,NO,1701955634
341,veinticinco de mayo,-35.4323,-60.1727,17.37,78,100,3.9,AR,1701955636
342,wewak,-3.5534,143.6268,27.01,87,100,5.13,PG,1701955637
343,meulaboh,4.1363,96.1285,25.52,87,100,1.66,ID,1701955638
344,punta arenas,-53.15,-70.9167,11.06,62,75,6.69,CL,1701955402
345,road town,18.4167,-64.6167,29.02,74,20,0.0,VG,1701955641
346,lemay,38.5334,-90.2793,6.98,76,0,3.09,US,1701955644
347,van buren,35.4368,-94.3483,5.68,79,0,2.06,US,1701955645
348,cedar city,37.6775,-113.0619,5.22,56,0,5.66,US,1701955647
349,baardheere,2.3446,42.2764,35.5,23,16,3.05,SO,1701955648
350,kingston,17.997,-76.7936,30.53,73,20,4.12,JM,1701955649
351,murghob,38.1702,73.9667,-11.94,68,85,1.89,TJ,1701955651
352,morant bay,17.8815,-76.4093,30.79,81,44,5.8,JM,1701955653
353,malango,-2.9627,119.9001,20.9,99,100,0.84,ID,1701955655
354,mersa matruh,31.3525,27.2453,23.11,35,0,5.66,EG,1701955657
355,kabanjahe,3.1001,98.4908,18.36,95,100,0.24,ID,1701955658
356,polyarnyy,69.1989,33.4478,-15.51,96,26,6.17,RU,1701955514
357,caconda,-13.7333,15.0667,26.33,48,94,2.87,AO,1701955661
358,enriquillo,17.9,-71.2333,25.82,75,96,3.93,DO,1701955662
359,badger,64.8,-147.5333,-13.07,83,75,0.0,US,1701955435
360,salinas,36.6777,-121.6555,8.89,93,0,2.06,US,1701955665
361,antalaha,-14.9003,50.2788,29.14,67,99,7.08,MG,1701955667
362,tralee,52.2704,-9.7026,12.14,71,75,5.66,IE,1701955669
363,north bay,46.3168,-79.4663,-3.83,94,100,5.14,CA,1701955670
364,kruisfontein,-34.0033,24.7314,26.5,47,0,5.88,ZA,1701955674
365,robore,-18.3333,-59.75,30.05,66,40,0.0,BO,1701955680
366,jinchang,38.4953,102.1739,4.35,21,6,1.22,CN,1701955681
367,kota kinabalu,5.9749,116.0724,26.99,89,40,2.57,MY,1701955684
368,venkatagiri,13.9667,79.5833,26.26,89,65,2.08,IN,1701955685
369,sambava,-14.2667,50.1667,28.24,72,91,6.68,MG,1701955686
370,bel ombre,-4.6167,55.4167,25.91,89,75,1.54,SC,1701955687
371,impfondo,1.6381,18.0667,28.62,62,91,0.49,CG,1701955692
372,bubaque,11.2833,-15.8333,27.62,67,88,2.29,GW,1701955693
373,san pedro pochutla,15.7333,-96.4667,23.84,65,40,1.81,MX,1701955695
374,marshall,34.3834,-86.3333,3.52,93,0,0.0,US,1701955739
375,huainan,32.6264,116.9969,14.36,38,0,3.34,CN,1701955569
376,uturoa,-16.7333,-151.4333,25.8,85,99,6.55,PF,1701955764
377,katsuura,35.1333,140.3,14.01,43,0,5.14,JP,1701955765
378,alpena,45.0617,-83.4327,2.14,96,100,0.0,US,1701955646
379,nadi,-17.8,177.4167,24.0,94,20,2.06,FJ,1701955768
380,berezovyy,51.6667,135.7,-11.23,90,100,1.68,RU,1701955769
381,labuan,5.2767,115.2417,26.2,89,75,2.06,MY,1701955773
382,sarangani,5.4033,125.4636,28.62,79,54,8.66,PH,1701955774
383,argo,37.6333,22.7333,15.99,61,100,2.15,GR,1701955775
384,canutama,-6.5339,-64.3831,29.52,67,90,1.3,BR,1701955777
385,port douglas,-16.4833,145.4667,25.18,82,27,5.84,AU,1701955780
386,riviere-du-loup,47.8304,-69.5342,-8.51,85,98,3.09,CA,1701955782
387,guerrero negro,27.9769,-114.0611,17.5,82,0,4.94,MX,1701955692
388,griffith,41.5284,-87.4237,2.28,86,0,3.6,US,1701955786
389,castillos,-34.1667,-53.8333,22.81,71,3,7.33,UY,1701955788
390,tal,35.4791,72.2439,2.43,53,98,3.5,PK,1701955789
391,broome,42.2506,-75.833,-1.57,92,100,2.06,US,1701955791
392,elliot lake,46.3834,-82.6331,-1.66,95,86,0.84,CA,1701955793
393,litchfield,41.7668,-73.2501,-3.52,83,100,0.89,US,1701955797
394,rio verde de mato grosso,-18.9181,-54.8442,35.14,34,76,2.43,BR,1701955798
395,dudinka,69.4058,86.1778,-22.99,98,81,4.92,RU,1701955613
396,shubarshi,48.5872,57.1869,-7.53,79,100,4.28,KZ,1701955802
397,pacific grove,36.6177,-121.9166,8.57,87,0,2.06,US,1701955804
398,puerto aysen,-45.4,-72.7,17.19,73,43,0.42,CL,1701955807
399,kone,-21.0595,164.8658,23.47,71,100,2.4,NC,1701955810
400,kawm umbu,24.4767,32.9463,26.26,19,0,1.93,EG,1701955812
401,balod,20.73,81.2047,18.86,94,100,1.18,IN,1701955813
402,sultanah,24.4926,39.5857,30.25,19,40,2.57,SA,1701955817
403,paso de los toros,-32.8167,-56.5167,22.29,69,72,6.19,UY,1701955819
404,arteche,12.2645,125.4048,27.18,72,100,3.91,PH,1701955820
405,luanco,43.6152,-5.7934,17.71,92,100,2.93,ES,1701955821
406,aykhal,66.0,111.5,-27.17,100,98,1.94,RU,1701955824
407,itoman,26.1247,127.6694,18.01,63,20,3.09,JP,1701955629
408,dzhetygara,52.1908,61.2006,-21.1,95,10,3.05,KZ,1701955827
409,mulayjah,27.271,48.4242,22.38,19,0,2.17,SA,1701955828
410,tucuma,-0.1833,-50.05,27.86,85,99,3.84,BR,1701955829
411,bodaybo,57.8506,114.1933,-35.26,98,100,1.0,RU,1701955831
412,burnie,-41.0667,145.9167,13.03,70,21,2.35,AU,1701955833
413,vorkuta,67.5,64.0,-27.96,98,100,2.35,RU,1701955398
414,bairnsdale,-37.8333,147.6167,15.59,92,100,0.45,AU,1701955836
415,galle,6.0367,80.217,26.93,85,26,1.04,LK,1701955839
416,naryn,41.4287,75.9911,-3.42,58,95,3.5,KG,1701955841
417,babayevo,59.3936,35.9371,-19.2,100,70,1.15,RU,1701955843
418,huicungo,-7.2833,-76.8,24.14,88,75,0.0,PE,1701955844
419,tracy,37.7397,-121.4252,9.1,89,3,1.34,US,1701955846
420,parry sound,45.3501,-80.033,0.03,100,100,3.45,CA,1701955847
421,inarajan village,13.2736,144.7484,27.54,91,100,6.45,GU,1701955852
422,kolobrzeg,54.1757,15.5834,1.09,84,100,3.56,PL,1701955857
423,duong dong,10.2167,103.9667,26.0,94,40,0.0,VN,1701955858
424,andkhoy,36.9529,65.1238,13.17,29,100,2.24,AF,1701955863
425,shengli,37.4564,118.4856,10.63,38,0,3.03,CN,1701955636
426,gamba,-2.65,10.0,29.18,68,16,5.29,GA,1701955866
427,sikka,22.4333,69.8333,25.04,57,0,6.99,IN,1701955868
428,minas de marcona,-15.2119,-75.1103,16.35,74,100,4.84,PE,1701955580
429,celestun,20.8667,-90.4,22.58,71,98,4.24,MX,1701955872
430,palikir - national government center,6.9248,158.1611,27.41,83,100,0.0,FM,1701955733
431,lohra,50.7333,8.6333,3.89,98,93,1.83,DE,1701955875
432,barra do bugres,-15.0725,-57.1811,39.67,27,60,0.51,BR,1701955879
433,sao joao da barra,-21.6403,-41.0511,33.05,70,22,6.11,BR,1701955880
434,hot springs village,34.6655,-93.01,4.4,78,98,1.94,US,1701955882
435,'ain el bell,34.3438,3.2247,15.88,39,5,0.72,DZ,1701955884
436,grootfontein,-19.5667,18.1167,33.76,20,20,1.54,NA,1701955835
437,craig,40.5153,-107.5464,-3.21,80,100,1.54,US,1701955887
438,padangsidempuan,1.3667,99.2667,22.91,98,100,0.62,ID,1701955889
439,yeed,4.55,43.0333,32.19,25,5,5.02,SO,1701955890
440,kavalerovo,44.2661,135.0572,-10.89,78,78,8.05,RU,1701955891
441,hami,42.8,93.45,1.78,42,100,2.47,CN,1701955440
442,choyr,46.3611,108.3611,-1.28,54,66,11.09,MN,1701955895
443,santa ana de yacuma,-13.75,-65.4333,28.97,74,75,5.14,BO,1701955897
444,shingu,33.7333,135.9833,7.19,69,0,3.55,JP,1701955899
445,alpine,32.835,-116.7664,11.48,80,100,0.0,US,1701955902
446,puerto madryn,-42.7692,-65.0385,16.83,46,15,6.92,AR,1701955727
447,rabo de peixe,37.8,-25.5833,18.73,99,20,3.09,PT,1701955887
448,xichang,27.8964,102.2634,9.34,90,75,1.37,CN,1701955912
449,sarykemer,43.0,71.5,-1.29,52,100,2.65,KZ,1701955913
450,inhambane,-23.865,35.3833,26.99,78,75,7.2,MZ,1701955916
451,kupang,-10.1667,123.5833,27.32,94,100,1.54,ID,1701955918
452,quixada,-4.9714,-39.0153,32.75,39,39,3.66,BR,1701955919
453,mejit,10.2753,170.8646,27.78,80,72,11.02,MH,1701955920
454,barcelos,41.5388,-8.6151,16.08,97,100,2.61,PT,1701955673
455,kitimat,54.0524,-128.6534,1.21,64,100,1.26,CA,1701955926
456,boende,-0.2167,20.8667,26.72,77,53,1.44,CD,1701955350
457,tatarsk,55.219,75.9828,-34.9,98,6,2.45,RU,1701955929
458,upington,-28.4478,21.2561,37.21,6,0,6.17,ZA,1701955931
459,myski,53.709,87.8014,-17.4,95,100,2.32,RU,1701955933
460,kulhudhuffushi,6.6221,73.07,27.82,79,100,7.64,MV,1701955934
461,jieshi,22.8134,115.8257,18.66,65,33,5.03,CN,1701955935
462,ibresi,55.2961,47.0394,-24.54,100,30,1.52,RU,1701955937
463,lichuan,30.3,108.85,6.94,67,53,0.9,CN,1701955939
464,uliastay,47.7417,96.8444,-18.04,92,66,2.07,MN,1701955940
465,nishinoomote,30.7333,131.0,15.62,49,0,4.19,JP,1701955945
466,chernyshevskiy,63.0128,112.4714,-44.15,100,94,0.13,RU,1701955946
467,brookings,44.3114,-96.7984,6.73,86,0,2.57,US,1701955544
468,coquimbo,-29.9533,-71.3436,14.85,82,75,1.03,CL,1701955706
469,praia,14.9215,-23.5087,27.3,54,75,6.17,CV,1701955820
470,dajal,29.5577,70.3762,19.94,22,0,2.57,PK,1701955953
471,xilin hot,43.9667,116.0333,-0.55,68,6,8.66,CN,1701955954
472,ayacucho,-13.1583,-74.2239,15.92,63,75,1.03,PE,1701955956
473,aransas pass,27.9095,-97.15,18.99,88,0,3.09,US,1701955958
474,poronaysk,49.2167,143.1167,3.56,96,100,10.35,RU,1701955959
475,trincomalee,8.5711,81.2335,27.4,85,62,4.19,LK,1701955961
476,sadovoye,47.7764,44.5089,-2.46,79,96,6.68,RU,1701955962
477,sisimiut,66.9395,-53.6735,-4.57,67,98,2.86,GL,1701955851
478,alta,69.9689,23.2717,-9.41,74,0,8.23,NO,1701955965
479,hobyo,5.3505,48.5268,27.16,57,94,8.6,SO,1701955966
480,broken hill,-31.95,141.4333,30.5,30,65,6.8,AU,1701955972
481,el porvenir,13.7617,-87.3458,20.63,64,8,2.76,HN,1701955974
482,boiling spring lakes,34.0304,-78.0672,3.86,65,0,2.06,US,1701955975
483,zeya,53.75,127.2667,-21.96,99,100,1.17,RU,1701955977
484,south hedland,-20.4089,118.5983,27.96,89,75,6.17,AU,1701955978
485,uacu cungo,-11.3634,15.1208,24.67,73,83,1.12,AO,1701955979
486,bonga,7.2833,36.2333,20.22,86,44,1.18,ET,1701955980
487,ndele,8.4109,20.6473,35.69,14,37,1.62,CF,1701955982
488,sitka,57.0531,-135.33,3.94,87,100,4.12,US,1701955693
489,puerto montt,-41.4698,-72.9447,13.46,88,100,2.06,CL,1701955985
490,katima mulilo,-17.5,24.2667,34.53,23,100,3.28,NA,1701955986
491,kununurra,-15.7667,128.7333,29.99,66,92,3.6,AU,1701955988
492,caleta de carquin,-11.0925,-77.6267,20.93,79,42,3.38,PE,1701955990
493,lamu,-2.2717,40.902,29.12,74,17,4.77,KE,1701955991
494,salalah,17.0151,54.0924,29.05,34,0,3.09,OM,1701955869
495,el sauzal de rodriguez,31.9,-116.6833,13.02,81,11,2.65,MX,1701955994
496,gouyave,12.1646,-61.7296,25.43,94,75,5.14,GD,1701955995
497,mont-dore,-22.2833,166.5833,19.99,78,100,3.15,NC,1701955997
498,banda aceh,5.5577,95.3222,26.66,83,100,2.18,ID,1701955999
499,antsiranana,-12.2787,49.2917,31.42,48,20,6.17,MG,1701955605
500,nantucket,41.2835,-70.0995,-0.57,75,0,4.12,US,1701955935
501,kolwezi,-10.7148,25.4667,19.83,77,89,2.9,CD,1701956003
502,roanoke rapids,36.4615,-77.6542,1.86,100,0,1.54,US,1701956005
503,tutong,4.8,114.65,27.05,89,65,2.22,BN,1701956006
504,mwene-ditu,-7.0,23.45,24.04,90,100,1.67,CD,1701956008
505,fale old settlement,-9.3852,-171.2468,28.69,77,100,3.3,TK,1701955425
506,suoyarvi,62.0833,32.35,-15.01,99,94,1.65,RU,1701956011
507,kill devil hills,36.0307,-75.676,5.55,62,0,2.06,US,1701956013
508,kani keli,-12.9536,45.1033,29.59,68,52,0.88,YT,1701956014
509,mount isa,-20.7333,139.5,23.87,41,0,0.0,AU,1701956016
510,flying fish cove,-10.4217,105.6791,25.82,88,100,3.6,CX,1701955784
511,revda,56.801,59.9303,-31.04,97,5,0.35,RU,1701955875
512,beledweyne,4.7358,45.2036,33.35,25,37,4.01,SO,1701956021
513,mukalla,14.5425,49.1242,25.62,62,20,2.64,YE,1701956022
514,kristiansund,63.1115,7.732,-1.64,69,0,2.57,NO,1701956024
515,khandyga,62.6667,135.6,-35.05,92,100,1.56,RU,1701956025
516,yemetsk,63.4721,41.7941,-24.52,98,32,1.27,RU,1701956027
517,ambatofinandrahana,-20.55,46.8,23.23,53,72,5.87,MG,1701956029
518,olinda,-8.0089,-34.8553,29.85,62,75,5.14,BR,1701955613
519,port saint john's,-31.6229,29.5448,26.65,61,98,6.5,ZA,1701956032
520,belel,7.05,14.4333,28.53,22,57,3.95,CM,1701956035
521,jaguaruna,-28.615,-49.0256,29.58,85,100,1.29,BR,1701956037
522,shihezi,44.3,86.0333,-0.68,88,98,5.74,CN,1701956038
523,huarmey,-10.0681,-78.1522,21.35,81,40,3.31,PE,1701956042
524,mancio lima,-7.6142,-72.8958,25.04,94,75,0.51,BR,1701956045
525,recreo,-29.2818,-65.061,28.48,49,30,2.57,AR,1701956047
526,plast,54.3691,60.8136,-26.49,94,12,2.24,RU,1701956050
527,taltal,-25.4,-70.4833,18.87,69,14,2.37,CL,1701956052
528,siracusa,37.0881,15.2792,17.77,48,9,4.73,IT,1701955940
529,faya-largeau,17.9257,19.1043,30.94,11,0,3.09,TD,1701956054
530,lower hutt,-41.2167,174.9167,14.95,86,40,2.57,NZ,1701956056
531,caister-on-sea,52.6481,1.7265,7.21,77,100,10.97,GB,1701956057
532,saint-remi,45.2668,-73.6159,-10.03,91,100,1.45,CA,1701956058
533,bethanie,-26.4833,17.15,35.49,6,0,9.65,NA,1701956062
534,vozhega,60.4725,40.2213,-17.71,100,93,0.45,RU,1701956065
535,porto velho,-8.7619,-63.9039,29.03,74,0,2.57,BR,1701955891
536,dno,57.8277,29.9637,-14.97,98,89,2.0,RU,1701956068
537,crane,31.3974,-102.3501,10.43,85,99,4.54,US,1701956070
538,kyren,51.6828,102.1408,-17.73,97,100,1.52,RU,1701956072
539,kikwit,-5.041,18.8162,24.57,77,100,1.72,CD,1701956074
540,las tablas,7.7667,-80.2833,26.76,99,76,6.6,PA,1701956076
541,laojunmiao,39.8333,97.7333,2.13,18,7,0.86,CN,1701956078
542,ormara,25.2088,64.6357,24.24,53,0,4.29,PK,1701956079
543,gopalpur,19.2667,84.9167,23.76,89,89,4.37,IN,1701956081
544,paphos,34.7667,32.4167,19.88,77,75,2.06,CY,1701956082
545,kzyltu,53.6364,72.3414,-29.52,95,7,3.72,KZ,1701956084
546,zhanaozen,43.3,52.8,3.34,29,100,8.84,KZ,1701956085
547,al ghayzah,16.2079,52.176,26.04,43,13,4.99,YE,1701956086
548,colchani,-20.3,-66.9333,16.15,30,5,1.52,BO,1701956091
549,saint-joseph,-21.3667,55.6167,26.37,84,54,5.06,RE,1701955803
550,andergrove,-21.0833,149.1833,23.69,64,100,7.29,AU,1701956094
551,puerto leguizamo,-0.1934,-74.7819,26.03,81,86,0.29,CO,1701956095
552,gazi,35.3253,25.0669,19.89,77,75,3.6,GR,1701956097
553,kalach-na-donu,48.691,43.5264,-2.61,75,95,6.78,RU,1701956100
554,mili,6.0815,171.735,27.93,81,97,8.99,MH,1701956105
555,gokceada,40.2011,25.909,12.6,75,100,5.59,TR,1701956108
556,znamenskoye,57.1281,73.8282,-30.85,98,7,2.2,RU,1701956109
557,katsuren-haebaru,26.3369,127.8719,18.01,59,0,2.06,JP,1701956110
558,fisterra,42.9049,-9.2629,17.79,87,100,6.26,ES,1701956113
559,archidona,37.0965,-4.3887,16.48,67,94,2.61,ES,1701956117
560,dauphin,51.1494,-100.0502,1.08,75,100,1.54,CA,1701956119
561,chemin grenier,-20.4872,57.4656,27.77,78,55,4.89,MU,1701956122
562,buritama,-21.0661,-50.1472,35.17,35,12,2.8,BR,1701956123
563,letterkenny,54.95,-7.7333,11.96,85,100,6.24,IE,1701956127
564,zemio,5.0314,25.1361,32.49,35,19,0.7,CF,1701956136
565,tinogasta,-28.0632,-67.5649,24.35,42,44,2.91,AR,1701956138
566,borkum,53.5809,6.6915,3.86,79,19,5.03,DE,1701956139
567,turtas,58.9417,69.1325,-29.6,88,6,2.7,RU,1701956140
568,el triunfo,-1.9333,-79.9667,26.02,92,100,0.85,EC,1701956142
569,fortuna,40.5982,-124.1573,9.4,97,100,5.66,US,1701955764
570,wangqing,43.3218,129.7634,-7.93,73,4,1.28,CN,1701956144
571,fauske,67.2588,15.3918,-2.98,81,84,4.9,NO,1701956149
572,raja,8.4596,25.678,33.96,14,48,3.1,SS,1701956151
573,runaway bay,18.4596,-77.3357,26.74,79,51,7.24,JM,1701956152
574,kargasok,59.0556,80.8572,-27.8,89,100,5.81,RU,1701956155
575,swakopmund,-22.6833,14.5333,25.47,82,57,4.47,NA,1701956157
576,mount gambier,-37.8333,140.7667,14.3,66,100,1.69,AU,1701956160
577,shangrao,28.4532,117.9686,11.91,63,0,0.91,CN,1701956163
578,quimili,-27.6333,-62.4167,24.25,74,79,3.44,AR,1701956168
579,zymohiria,48.5857,38.9273,-1.2,76,96,7.22,UA,1701956171
580,peace river,56.2501,-117.286,-5.75,98,0,2.57,CA,1701956136
581,fortaleza,-3.7227,-38.5247,30.07,67,75,9.26,BR,1701956009
582,khandud,36.9513,72.318,-3.21,45,100,0.86,AF,1701956177
583,guarapari,-20.6667,-40.4975,31.61,54,13,7.47,BR,1701956178
584,sinabang,2.4803,96.3801,26.43,82,100,0.89,ID,1701956180
585,pasaia,43.3403,-1.898,15.53,66,40,8.23,ES,1701956182
586,tacuarembo,-31.7333,-55.9833,22.34,73,81,5.79,UY,1701956161
587,zelenoborskiy,66.845,32.3622,-17.97,95,98,1.74,RU,1701956188
588,linhares,-19.3911,-40.0722,32.9,43,77,2.7,BR,1701956189
589,lazaro cardenas,17.9583,-102.2,22.79,85,100,3.04,MX,1701956191
590,pasni,25.2631,63.471,23.96,55,0,3.51,PK,1701956192
591,viljandi,58.3639,25.59,-9.69,93,96,3.34,EE,1701956193
592,cidreira,-30.1811,-50.2056,25.59,85,100,4.64,BR,1701956195
593,novyy urengoy,66.0833,76.6333,-22.8,96,100,6.56,RU,1701956196
594,trail,49.0998,-117.7022,7.21,97,100,1.66,CA,1701956199
595,sho'rchi,38.0141,67.7899,13.9,26,100,2.88,UZ,1701956200
596,tangalle,6.024,80.7911,27.09,89,13,1.48,LK,1701956201
597,tottori,35.5,134.2333,8.21,64,53,3.28,JP,1701956203
598,gyumri,40.7942,43.8453,6.79,65,20,1.54,AM,1701956204
599,oranjemund,-28.55,16.4333,20.5,70,3,5.89,NA,1701956205
600,la'ie,21.6477,-157.9253,24.23,70,26,3.58,US,1701955863
601,isangel,-19.55,169.2667,23.72,74,100,5.0,VU,1701956211
602,tromso,69.6496,18.957,-3.99,63,0,9.77,NO,1701956214
603,iquique,-20.2208,-70.1431,20.02,61,0,3.29,CL,1701956070
604,sogndal,61.2283,7.1003,-2.79,93,75,0.0,NO,1701956218
605,ghormach,35.7306,63.7826,12.96,24,100,1.27,AF,1701956222
606,goz beida,13.95,20.55,35.46,10,29,4.29,TD,1701956223
607,hirara,24.8,125.2833,18.92,72,75,5.14,JP,1701956225
608,bikenibeu village,1.3673,173.1241,28.98,74,75,4.12,KI,1701955954
609,mandalgovi,45.7625,106.2708,-1.52,35,76,11.09,MN,1701956227
